City,Country,Lat,Lng,Date (UTC),Cloudiness (%),Humidity (%),Max Temp (F),Wind Speed (mph)
lachute,CA,45.66,-74.34,1561387370,75,35,75.0,3.36
san cristobal,EC,-0.39,-78.55,1561387370,91,98,48.0,4.68
cherskiy,RU,68.75,161.3,1561387370,19,43,60.71,6.64
ushuaia,AR,-54.81,-68.31,1561387370,40,80,35.6,14.99
ixtapa,MX,20.71,-105.21,1561387371,5,73,82.0,6.08
longyearbyen,NO,78.22,15.63,1561387371,40,61,48.2,8.05
tual,ID,-5.67,132.75,1561387372,79,82,79.61,22.19
hami,CN,42.84,93.51,1561387373,9,26,76.19,9.19
thaba-tseka,LS,-29.52,28.61,1561387373,7,16,44.15,7.45
new norfolk,AU,-42.78,147.06,1561387373,0,80,34.0,3.36
atuona,PF,-9.8,-139.03,1561387373,1,79,80.69,10.74
tiznit,MA,29.7,-9.73,1561387373,0,86,67.37,9.17
souillac,FR,45.6,-0.6,1561387373,0,55,91.0,4.7
tuktoyaktuk,CA,69.44,-133.03,1561387374,20,70,48.2,2.24
barrow,AR,-38.31,-60.23,1561387374,100,52,54.59,4.56
kahului,US,20.89,-156.47,1561387374,1,83,73.99,4.7
punta arenas,CL,-53.16,-70.91,1561386783,40,86,35.6,21.92
hobart,AU,-42.88,147.33,1561386718,0,80,34.0,3.36
lakes entrance,AU,-37.88,147.99,1561387374,0,93,35.01,5.39
laranjeiras do sul,BR,-25.41,-52.42,1561387374,0,62,70.61,5.77
torbay,CA,47.66,-52.73,1561387374,40,59,63.0,19.46
port alfred,ZA,-33.59,26.89,1561387375,100,88,62.01,4.0
puerto ayora,EC,-0.74,-90.35,1561387375,5,74,74.03,8.39
nouadhibou,MR,20.93,-17.03,1561387375,25,64,75.2,18.34
cape town,ZA,-33.93,18.42,1561386669,20,67,63.0,14.99
wagar,US,31.44,-87.99,1561387375,22,75,86.0,8.99
fort nelson,CA,58.81,-122.69,1561387375,75,82,57.2,4.7
vaini,IN,15.34,74.49,1561387375,40,83,75.2,4.7
khatanga,RU,71.98,102.47,1561387375,100,54,68.27,10.63
jumla,NP,29.28,82.18,1561387376,0,89,55.31,2.53
roma,IT,41.89,12.48,1561387326,0,45,93.2,8.05
mataura,NZ,-46.19,168.86,1561386782,76,96,46.0,3.0
rikitea,PF,-23.12,-134.97,1561386782,52,83,71.87,13.38
sola,NO,58.89,5.65,1561387376,75,82,61.0,2.24
naze,NG,5.43,7.07,1561387376,100,98,73.49,6.69
praia da vitoria,PT,38.73,-27.07,1561387376,20,60,72.0,8.99
jamestown,AU,-33.21,138.6,1561387208,100,49,46.13,7.09
butaritari,KI,3.07,172.79,1561387377,100,80,81.41,5.61
pisco,PE,-13.71,-76.2,1561387377,90,30,71.6,3.36
victoria,BN,5.28,115.24,1561387377,75,83,82.4,4.85
hermanus,ZA,-34.42,19.24,1561386789,67,73,61.0,6.71
sobolevo,RU,54.43,31.9,1561387377,11,71,70.61,7.52
busselton,AU,-33.64,115.35,1561386786,100,55,57.99,17.22
beloha,MG,-25.17,45.06,1561387378,0,64,71.15,5.79
constitucion,MX,23.99,-104.67,1561387378,5,48,70.0,3.36
pevek,RU,69.7,170.27,1561387378,0,71,39.65,10.07
ribeira grande,PT,38.52,-28.7,1561386792,20,68,69.8,10.29
the valley,AI,18.22,-63.06,1561387378,20,70,86.0,14.99
kodiak,US,39.95,-94.76,1561387378,1,77,68.0,9.17
dori,BF,14.03,-0.03,1561387378,0,16,106.25,0.69
albany,US,42.65,-73.75,1561386766,40,43,77.0,3.09
qaanaaq,GL,77.48,-69.36,1561387379,88,77,32.81,8.08
marienburg,DE,52.12,9.98,1561387379,0,33,87.01,9.17
kutum,SD,14.2,24.66,1561387379,26,9,95.45,13.85
huarmey,PE,-10.07,-78.15,1561387379,100,83,63.05,10.71
sept-iles,CA,50.2,-66.38,1561387379,75,38,64.99,13.87
hervey bay,AU,-25.3,152.85,1561387278,0,81,53.01,6.93
los llanos de aridane,ES,28.66,-17.92,1561387366,20,61,80.6,4.7
port hardy,CA,50.7,-127.42,1561387379,90,93,51.8,2.24
kruisfontein,ZA,-34.0,24.73,1561387380,100,83,54.59,17.02
hilo,US,19.71,-155.08,1561387380,75,88,73.4,2.35
thompson,CA,55.74,-97.86,1561387327,75,77,62.6,2.24
kuito,AO,-12.38,16.94,1561387380,0,69,75.2,1.52
panlaitan,PH,12.12,119.85,1561387380,100,79,83.39,14.5
portland,US,45.52,-122.67,1561387320,20,76,57.0,2.37
axim,GH,4.87,-2.24,1561387380,57,87,77.99,15.12
makinsk,KZ,52.63,70.42,1561387381,51,88,66.65,3.8
cabo san lucas,MX,22.89,-109.91,1561386785,5,29,82.99,5.82
trelew,AR,-43.25,-65.31,1561387381,100,53,47.03,19.82
buenos aires,AR,-34.61,-58.44,1561387184,90,87,59.0,11.41
dikson,RU,73.51,80.55,1561387382,78,61,46.31,11.79
upernavik,GL,72.79,-56.15,1561387382,98,87,37.13,7.27
noumea,NC,-22.28,166.46,1561387180,0,93,62.6,2.24
bluff,AU,-23.58,149.07,1561386783,0,52,53.51,12.06
clyde river,CA,70.47,-68.59,1561387382,75,58,53.6,12.75
mercedes,UY,-33.25,-58.03,1561387382,100,95,62.01,4.0
chapais,CA,49.78,-74.86,1561387382,1,38,59.0,6.93
tuatapere,NZ,-46.13,167.69,1561387382,66,96,46.0,4.0
mahebourg,MU,-20.41,57.7,1561387383,75,88,71.6,17.22
puerto quijarro,BO,-19.0,-57.72,1561387383,0,61,82.4,9.17
lompoc,US,34.64,-120.46,1561387383,90,93,59.0,3.27
ponta do sol,BR,-20.63,-46.0,1561387383,0,50,73.31,2.84
poum,MK,41.28,20.71,1561386785,75,53,71.6,4.7
georgetown,GY,6.8,-58.16,1561387222,75,83,80.6,11.41
puerto del rosario,ES,28.5,-13.86,1561387332,40,78,77.0,11.41
labuhan,ID,-2.54,115.51,1561387384,9,96,72.95,2.33
bure,NG,10.52,10.33,1561387384,100,47,85.55,6.11
ust-omchug,RU,61.13,149.63,1561387384,100,93,40.73,2.89
fortuna,ES,38.18,-1.13,1561387384,0,33,89.6,8.05
nikolskoye,RU,59.7,30.79,1561387384,20,40,72.0,17.9
fairbanks,US,64.84,-147.72,1561387297,90,93,57.99,1.99
am timan,TD,11.04,20.28,1561387385,94,28,99.05,1.77
kishi,NG,9.08,3.85,1561387385,43,57,87.35,5.61
coracao de jesus,BR,-16.69,-44.37,1561387385,0,42,80.69,5.97
sao gabriel,BR,-30.34,-54.32,1561387385,100,73,70.97,8.21
lakselv,NO,70.05,24.96,1561387385,75,67,57.2,4.7
tabuk,PH,17.41,121.44,1561387385,100,97,66.29,0.94
caravelas,BR,-17.73,-39.27,1561387386,18,65,79.25,3.24
bud,NO,62.91,6.91,1561387386,0,62,62.6,16.11
moron,VE,10.49,-68.2,1561387386,0,55,89.33,1.12
kang,BW,-23.67,22.79,1561387386,0,18,69.17,1.48
chadiza,ZM,-14.06,32.43,1561387386,48,35,72.41,5.66
alice,US,27.75,-98.07,1561387338,90,84,87.8,13.87
teguldet,RU,57.31,88.17,1561387387,3,79,54.95,3.29
saskylakh,RU,71.97,114.09,1561387387,3,46,64.67,8.68
hasaki,JP,35.73,140.83,1561387387,75,93,64.4,4.7
yellowknife,CA,62.45,-114.38,1561387146,40,72,64.4,4.7
saint george,GR,39.45,22.34,1561387387,20,38,93.2,14.99
castro,CL,-42.48,-73.76,1561387388,75,93,37.4,16.11
gusino,RU,54.72,31.37,1561387388,36,69,71.69,5.88
san lawrenz,MT,36.06,14.2,1561387388,0,32,93.2,9.17
severo-kurilsk,RU,50.68,156.12,1561386789,100,92,42.89,1.86
butterworth,MY,5.4,100.37,1561387388,75,66,86.0,2.24
kamaishi,JP,39.28,141.86,1561387388,100,99,55.85,3.51
ulladulla,AU,-35.36,150.48,1561387388,90,100,51.8,3.15
provideniya,RU,64.42,-173.23,1561387389,69,88,43.61,1.28
khasan,RU,42.43,130.64,1561387389,77,98,55.85,2.35
orbetello,IT,42.44,11.21,1561387389,20,36,93.2,10.29
biltine,TD,14.53,20.93,1561387389,0,15,103.19,3.24
margate,AU,-43.03,147.26,1561387389,0,80,34.0,3.36
faanui,PF,-16.48,-151.75,1561387389,42,81,77.45,25.37
hit,IQ,33.64,42.83,1561387389,0,8,107.51,11.3
berdigestyakh,RU,62.1,126.7,1561387390,20,98,53.87,5.44
carnarvon,ZA,-30.97,22.13,1561387390,81,24,56.39,7.85
longkou,CN,37.64,120.47,1561387390,2,68,73.31,18.14
hamilton,CA,43.26,-79.87,1561387363,90,72,72.0,6.93
byron bay,AU,-28.65,153.62,1561387390,90,100,55.99,8.05
shubarshi,KZ,48.59,57.19,1561387391,0,17,93.11,11.18
cayenne,GF,4.94,-52.33,1561387285,75,74,84.2,3.36
biak,ID,-0.91,122.88,1561387391,89,97,64.49,4.09
buchanan,LR,5.88,-10.05,1561387391,100,91,76.19,18.92
port lincoln,AU,-34.72,135.86,1561387391,100,83,50.27,23.22
nanortalik,GL,60.14,-45.24,1561387391,24,60,52.43,15.73
atar,MR,20.52,-13.05,1561387391,0,8,107.33,9.4
nouakchott,MR,18.08,-15.98,1561387392,0,38,89.6,14.99
half moon bay,US,37.46,-122.43,1561387392,90,93,63.0,9.17
praya,ID,-8.71,116.27,1561387392,40,94,73.4,1.12
saint-joseph,FR,43.56,6.97,1561387392,0,48,88.0,10.29
el dovio,CO,4.51,-76.24,1561387393,75,78,75.2,3.15
kapaa,US,22.08,-159.32,1561387393,40,100,73.99,5.82
mount gambier,AU,-37.83,140.78,1561387393,100,75,44.6,9.17
tasiilaq,GL,65.61,-37.64,1561387394,90,87,44.6,6.93
kaitangata,NZ,-46.28,169.85,1561387394,30,86,45.0,1.99
bethel,US,60.79,-161.76,1561387395,1,100,55.4,2.93
boa vista,BR,2.82,-60.67,1561387397,40,74,82.4,3.36
sao miguel do araguaia,BR,-13.28,-50.16,1561387137,0,27,89.87,10.2
tilichiki,RU,60.47,166.1,1561387397,100,86,47.75,3.02
herat,AF,34.35,62.22,1561387397,0,12,93.2,17.22
hualmay,PE,-11.1,-77.61,1561387397,100,83,62.15,11.3
dunedin,NZ,-45.87,170.5,1561387245,0,75,46.99,3.0
saint-philippe,CA,45.36,-73.48,1561387397,1,37,75.0,4.7
tiksi,RU,71.64,128.87,1561387398,0,63,50.45,5.57
bereda,ES,43.27,-7.54,1561387398,20,68,78.01,6.93
meulaboh,ID,4.14,96.13,1561387398,100,63,85.19,0.83
agadez,NE,16.97,7.99,1561387398,20,15,109.4,5.68
wanaka,NZ,-44.7,169.14,1561387398,0,88,32.0,3.76
port elizabeth,US,39.31,-74.98,1561387398,1,61,82.99,6.93
zhiryatino,RU,53.22,33.73,1561387399,40,47,77.0,11.18
norman wells,CA,65.28,-126.83,1561387328,20,82,57.2,1.95
bambous virieux,MU,-20.34,57.76,1561387399,75,88,71.6,17.22
kildare,IE,53.16,-6.91,1561387399,75,82,73.0,5.82
sao filipe,CV,14.9,-24.5,1561387399,26,80,73.85,18.97
pimentel,BR,-3.7,-45.5,1561387399,60,51,88.79,4.85
tarakan,ID,3.3,117.63,1561387399,40,88,80.6,6.22
rio gallegos,AR,-51.62,-69.22,1561387111,0,65,32.0,13.87
bredasdorp,ZA,-34.53,20.04,1561387400,100,63,62.6,8.05
avarua,CK,-21.21,-159.78,1561387400,73,69,73.4,10.29
pangnirtung,CA,66.15,-65.72,1561387400,20,70,44.6,6.93
sherlovaya gora,RU,50.53,116.31,1561387400,0,72,62.51,9.46
tombouctou,ML,16.77,-3.01,1561387400,20,5,112.55,13.51
nuuk,GL,64.17,-51.74,1561387341,90,93,48.2,2.24
bayburt,TR,40.26,40.22,1561387401,25,86,58.55,8.93
chokurdakh,RU,70.62,147.9,1561387402,0,45,63.05,9.57
sedalia,US,38.7,-93.23,1561387402,75,77,70.0,11.41
calama,CL,-22.46,-68.93,1561387402,0,9,55.4,16.11
arlit,NE,18.74,7.39,1561387402,0,3,112.01,22.26
igarka,RU,67.47,86.57,1561387402,0,57,64.85,7.43
serowe,BW,-22.4,26.7,1561387402,0,18,70.79,1.21
grand gaube,MU,-20.01,57.66,1561387402,75,88,71.6,17.22
litovko,RU,49.24,135.18,1561387403,100,97,64.67,4.25
saint-francois,FR,46.42,3.91,1561387403,0,45,87.8,10.29
mezen,RU,65.85,44.24,1561387403,93,71,43.61,13.42
kavaratti,IN,10.57,72.64,1561387403,89,79,83.57,17.34
manokwari,ID,-0.87,134.08,1561387403,4,78,74.75,3.42
saint anthony,US,43.97,-111.68,1561387404,1,50,55.99,10.29
esperance,TT,10.24,-61.45,1561387404,40,70,86.0,17.22
ponta delgada,PT,37.73,-25.67,1561387404,75,60,69.8,12.75
marzuq,YE,14.4,46.47,1561387404,100,17,88.07,15.28
namibe,AO,-15.19,12.15,1561387404,2,82,68.45,9.04
soyo,AO,-6.13,12.37,1561387404,99,75,75.11,11.79
peterhead,AU,-34.83,138.5,1561387404,0,49,51.01,12.75
chalons-en-champagne,FR,48.95,4.37,1561387405,0,43,91.4,4.7
zhigansk,RU,66.77,123.37,1561387405,24,59,66.47,6.33
srednekolymsk,RU,67.46,153.71,1561387405,0,51,61.43,6.33
sindor,RU,62.87,51.9,1561387405,59,51,57.11,7.02
starogard gdanski,PL,53.96,18.53,1561387405,0,49,82.99,9.17
samarai,PG,-10.62,150.67,1561387405,85,96,74.75,6.64
hithadhoo,MV,-0.6,73.08,1561387406,73,71,83.57,3.6
ambilobe,MG,-13.19,49.05,1561387406,28,78,74.39,3.42
avera,US,33.19,-82.53,1561387406,1,78,84.99,8.05
ypsonas,CY,34.69,32.96,1561387406,20,62,91.4,14.99
san quintin,PH,17.54,120.52,1561387406,100,87,78.89,3.36
almaznyy,RU,48.03,40.04,1561387406,20,35,87.8,8.95
talcahuano,CL,-36.72,-73.12,1561387406,75,81,46.4,6.93
san patricio,PY,-26.98,-56.83,1561387407,18,59,75.83,11.48
cockburn town,TC,21.46,-71.14,1561387407,19,80,79.97,13.47
zheleznodorozhnyy,RU,55.75,38.0,1561387407,0,26,78.8,13.42
lagoa,PT,37.14,-8.45,1561387407,20,78,75.99,10.29
leningradskiy,RU,69.38,178.42,1561387408,3,81,35.87,1.14
chalus,IR,36.66,51.42,1561387408,20,62,86.0,6.93
shingu,JP,33.72,135.99,1561387408,0,89,57.11,1.68
oistins,BB,13.07,-59.53,1561387408,75,74,86.0,20.8
agirish,RU,61.92,63.02,1561387408,36,50,59.99,8.86
cidreira,BR,-30.17,-50.22,1561387408,100,58,74.93,9.86
emba,CY,34.81,32.42,1561387409,20,79,86.0,16.11
turukhansk,RU,65.8,87.96,1561387409,75,74,65.75,3.42
stromness,CA,42.87,-79.55,1561387409,90,72,75.0,6.93
odemira,PT,37.6,-8.64,1561387409,53,60,73.99,3.0
sayyan,YE,15.17,44.32,1561387409,53,41,82.13,12.06
jharsuguda,IN,21.87,84.02,1561387409,0,66,89.6,6.6
alice springs,AU,-23.7,133.88,1561387402,3,38,42.8,8.37
jam sahib,PK,26.3,68.63,1561387409,0,45,100.4,6.93
victoria point,AU,-27.58,153.3,1561387181,75,93,57.0,11.41
lebu,ET,8.96,38.73,1561387410,100,64,67.37,3.4
dwarka,IN,28.58,77.04,1561387410,75,62,95.0,3.36
lavrentiya,RU,65.58,-170.99,1561387410,51,92,34.97,4.47
iberia,PE,-11.41,-69.49,1561387410,0,42,88.07,1.72
sabzevar,IR,36.21,57.68,1561387410,0,7,96.8,11.41
singuilucan,MX,19.97,-98.52,1561387410,98,71,62.51,7.7
magadan,RU,59.56,150.8,1561387411,51,93,41.27,4.7
vallenar,CL,-28.58,-70.76,1561387411,89,79,53.51,5.41
quelimane,MZ,-17.88,36.89,1561387411,40,61,78.8,6.93
rawson,AR,-43.3,-65.11,1561387411,100,53,47.03,19.82
cabra,ES,37.47,-4.43,1561387411,0,33,90.0,6.93
hobbs,US,32.7,-103.14,1561387251,1,73,72.0,17.22
narsaq,GL,60.91,-46.05,1561387411,40,28,69.8,11.41
abu kamal,SY,34.45,40.92,1561387411,0,11,104.45,1.48
maine-soroa,NE,13.21,12.02,1561387412,50,28,101.03,14.38
mainit,PH,9.54,125.52,1561387412,100,77,80.69,7.05
champerico,MX,16.38,-93.6,1561387412,75,83,77.0,3.36
makat,KZ,47.65,53.35,1561387412,0,11,101.03,11.41
mazagao,BR,-0.12,-51.29,1561387412,40,83,82.4,5.82
sangmelima,CM,2.93,11.98,1561387413,97,74,74.39,5.37
ust-ilimsk,RU,57.96,102.73,1561387413,14,48,63.41,7.0
morgan city,US,29.7,-91.21,1561387413,90,88,72.0,9.17
tottori,JP,35.5,134.23,1561387413,13,89,60.17,4.29
wawa,NG,9.9,4.41,1561387413,24,40,96.35,2.39
hirara,JP,24.8,125.28,1561387413,100,83,79.61,8.48
novikovo,UA,45.05,34.56,1561387413,57,71,75.47,1.74
buckeye,US,33.37,-112.58,1561387253,1,25,84.0,3.36
opuwo,NA,-18.06,13.84,1561387414,0,10,82.85,9.1
houma,CN,35.63,111.36,1561387414,82,51,73.67,2.28
comodoro rivadavia,AR,-45.87,-67.48,1561387414,0,56,44.6,18.34
ust-nera,RU,64.57,143.24,1561387414,8,69,49.01,2.84
dali,CN,25.6,100.24,1561387414,97,93,64.85,3.6
vranjska banja,RS,42.56,21.99,1561387415,78,65,75.0,11.99
senador guiomard,BR,-10.15,-67.74,1561387415,0,74,82.4,3.36
luba,PH,17.32,120.7,1561387415,100,87,78.89,3.36
tanete,ID,-3.94,119.78,1561387415,47,79,79.79,19.71
luanda,AO,-8.83,13.24,1561387415,0,61,80.6,10.29
asosa,ET,10.07,34.53,1561387415,100,90,73.67,2.62
chernyshevskiy,RU,63.01,112.47,1561387415,39,74,58.55,3.56
zaragoza,ES,41.65,-0.88,1561387187,0,17,91.4,16.11
utiel,ES,39.57,-1.21,1561387416,20,54,84.99,12.75
nakusp,CA,50.24,-117.8,1561387416,82,99,50.0,3.0
burgos,ES,42.34,-3.7,1561387416,0,29,81.0,6.93
ketchikan,US,55.34,-131.65,1561387416,90,93,53.6,3.15
arraial do cabo,BR,-22.97,-42.02,1561387417,0,65,82.4,4.7
ambanja,MG,-13.68,48.45,1561387418,20,74,82.4,4.7
katsuura,JP,33.93,134.5,1561387418,20,73,71.6,3.78
aklavik,CA,68.22,-135.01,1561387418,90,76,55.4,4.7
menongue,AO,-14.66,17.68,1561387418,0,17,78.35,3.09
saldanha,PT,41.42,-6.55,1561387418,100,79,61.07,5.64
pacific grove,US,36.62,-121.92,1561387418,90,93,59.0,4.59
bubaque,GW,11.28,-15.83,1561387418,74,76,79.79,11.32
muros,ES,42.77,-9.06,1561387419,40,68,69.01,8.05
springbok,ZA,-29.67,17.88,1561387419,25,36,66.47,9.71
puri,ID,-7.54,112.45,1561387419,0,82,71.15,8.59
gryazovets,RU,58.88,40.25,1561387419,64,55,61.97,11.9
ust-tsilma,RU,65.44,52.15,1561387419,93,63,49.91,8.63
itarema,BR,-2.92,-39.92,1561387419,0,56,86.45,10.4
sainte-marie,CA,46.45,-71.03,1561387420,20,39,69.01,3.36
tarko-sale,RU,64.92,77.78,1561387420,100,83,62.01,12.95
la tuque,CA,47.44,-72.79,1561387420,2,33,66.83,4.18
surt,LY,31.21,16.59,1561387409,0,57,85.37,3.91
tynda,RU,55.15,124.74,1561387420,31,74,50.63,4.16
songjianghe,CN,42.18,127.48,1561387420,50,84,60.17,3.2
sinyavskoye,RU,47.28,39.28,1561387420,20,35,87.8,8.95
ngunguru,NZ,-35.62,174.5,1561387421,74,92,48.99,3.0
port-gentil,GA,-0.72,8.78,1561387421,20,69,82.4,12.75
lumphat,KH,13.5,106.97,1561387421,100,96,76.91,4.65
baruun-urt,MN,46.68,113.28,1561387421,49,76,67.01,10.07
dvorichna,UA,49.85,37.68,1561387421,83,74,76.55,6.42
rey bouba,CM,8.67,14.18,1561387421,13,60,88.43,3.47
beringovskiy,RU,63.05,179.32,1561387421,99,89,47.57,3.78
waddan,LY,29.16,16.14,1561387422,0,11,102.83,12.62
umm lajj,SA,25.02,37.27,1561387422,0,74,85.55,12.17
benjamin constant,BR,-4.38,-70.03,1561387422,20,74,80.6,3.36
tautira,PF,-17.73,-149.15,1561387422,41,83,71.6,5.82
orangeburg,US,33.49,-80.86,1561387422,1,66,86.0,4.7
terra santa,BR,-2.1,-56.49,1561387422,1,52,88.25,5.7
kankan,GN,10.38,-9.3,1561387422,34,49,92.03,1.3
klaksvik,FO,62.23,-6.59,1561387423,0,71,55.4,9.17
gimli,CA,50.63,-96.99,1561387327,53,55,70.0,2.57
yenagoa,NG,4.92,6.26,1561387423,100,95,74.03,9.04
gisenyi,CD,-1.69,29.26,1561387423,100,91,63.23,0.25
tiarei,PF,-17.53,-149.33,1561387423,10,83,71.6,5.82
yerbogachen,RU,61.28,108.01,1561387423,60,54,56.75,2.86
karpokhorion,GR,39.33,22.02,1561387424,20,38,93.2,14.99
sturgeon bay,US,44.83,-87.38,1561387212,90,93,73.0,5.82
laguna,MX,27.52,-110.01,1561387424,5,53,75.2,3.36
bridgetown,CA,44.84,-65.29,1561387424,20,51,63.0,9.17
cherdyn,RU,60.4,56.48,1561387424,50,49,62.15,7.85
vao,EE,59.1,26.19,1561387424,67,42,67.01,11.01
dolzhanskaya,RU,46.63,37.8,1561387425,14,65,79.43,6.8
peniche,PT,39.36,-9.38,1561387425,20,68,71.01,5.82
ginda,IN,30.69,78.49,1561387425,40,66,86.0,4.7
pirapora,BR,-17.35,-44.95,1561387425,0,45,81.41,4.03
dhidhdhoo,MV,6.88,73.1,1561387231,0,76,84.11,15.43
oranjemund,ZA,-28.55,16.43,1561387425,33,83,56.57,11.9
mont-dore,NC,-22.23,166.53,1561387425,0,93,62.6,2.24
kostyantynivka,UA,48.53,37.71,1561387425,15,51,80.33,12.73
mon,IN,26.73,95.03,1561387426,100,91,80.33,0.83
podporozhye,RU,60.91,34.16,1561387426,76,48,63.23,9.78
kushalgarh,IN,23.2,74.45,1561387426,69,45,93.29,9.46
tabas,IR,33.6,56.92,1561387426,0,7,104.0,9.17
acapulco,MX,16.86,-99.88,1561387426,90,88,80.6,2.24
mandawar,IN,29.49,78.13,1561387426,42,59,86.45,8.25
kloulklubed,PW,7.04,134.26,1561387426,75,94,77.0,4.7
havelock,US,34.88,-76.9,1561387427,75,69,84.2,6.93
kielce,PL,50.87,20.63,1561387227,0,1,84.0,10.42
beitbridge,ZA,-22.21,29.99,1561387427,0,40,68.63,1.95
santo angelo,BR,-28.3,-54.26,1561387419,0,60,73.4,11.41
xinmin,CN,42.0,122.83,1561387427,0,60,75.2,2.24
lugovoy,RU,59.72,65.88,1561387427,57,51,64.49,4.88
vangaindrano,MG,-23.35,47.6,1561387427,0,93,66.29,0.6
namatanai,PG,-3.66,152.44,1561387428,51,86,79.61,11.45
koumac,NC,-20.56,164.28,1561387428,81,83,69.89,4.92
luangwa,MZ,-15.62,30.4,1561387428,93,36,78.35,4.05
alofi,NU,-19.06,-169.92,1561387428,75,88,71.6,16.31
soubre,CI,5.79,-6.61,1561387428,42,90,79.43,6.22
kieta,PG,-6.22,155.63,1561387428,22,82,80.33,6.33
nsanje,MZ,-16.92,35.26,1561387429,4,49,76.37,5.26
beyneu,KZ,45.32,55.19,1561387429,80,14,100.67,10.11
geraldton,CA,49.72,-86.95,1561387429,90,67,62.6,6.93
mount isa,AU,-20.73,139.49,1561387429,0,25,51.8,9.17
dudinka,RU,69.41,86.18,1561387429,0,63,64.4,15.66
matagami,NG,9.67,8.4,1561387429,100,74,75.83,0.4
katobu,ID,-4.94,122.53,1561387429,22,84,73.49,5.32
ishigaki,JP,24.34,124.16,1561387429,100,79,78.89,5.77
yuza,JP,39.05,139.95,1561387430,100,85,66.11,6.44
jeremoabo,BR,-10.08,-38.34,1561387430,90,56,79.61,9.86
balikpapan,ID,-1.24,116.86,1561387430,100,98,72.59,2.42
khani,GE,41.96,42.96,1561387430,75,69,82.4,14.99
pangai,TO,-19.8,-174.35,1561387430,22,77,77.09,17.54
rantepao,ID,-2.97,119.9,1561387430,33,97,57.47,2.51
deputatskiy,RU,69.3,139.9,1561387430,0,51,56.93,11.3
hay river,CA,60.82,-115.79,1561387431,75,93,55.4,6.93
belmonte,PT,40.36,-7.35,1561387431,100,68,62.01,2.01
stephenville,US,32.22,-98.2,1561387431,90,94,75.2,4.7
havre-saint-pierre,CA,50.23,-63.6,1561387431,90,54,55.4,17.22
tallahassee,US,30.44,-84.28,1561387166,20,79,90.0,6.93
porto franco,BR,-6.34,-47.4,1561387431,99,42,89.15,7.54
kavieng,PG,-2.57,150.8,1561387431,44,75,83.57,6.2
maceio,BR,-9.67,-35.74,1561387432,92,72,79.97,10.02
kitimat,CA,54.02,-128.69,1561387432,75,87,51.8,9.17
cap malheureux,MU,-19.98,57.61,1561387432,75,88,71.6,17.22
sitka,US,37.17,-99.65,1561387432,0,64,66.99,11.01
sorland,NO,67.67,12.69,1561387432,75,76,50.0,8.05
mehamn,NO,71.03,27.85,1561387432,96,82,47.93,16.73
tezu,IN,27.93,96.16,1561387432,92,80,77.09,4.43
rafaela,AR,-31.25,-61.49,1561387432,100,84,64.0,6.64
finale ligure,IT,44.17,8.34,1561387433,0,61,91.99,4.7
mar del plata,AR,-46.43,-67.52,1561387433,87,52,41.27,21.79
nemuro,JP,43.32,145.57,1561387433,100,93,48.65,2.15
najran,SA,17.54,44.22,1561387433,0,8,96.8,6.93
swidwin,PL,53.77,15.78,1561387433,0,31,78.8,8.05
lardos,GR,36.09,28.02,1561387391,0,32,93.2,16.11
nchelenge,ZM,-9.35,28.74,1561387433,0,44,76.55,4.92
talnakh,RU,69.49,88.39,1561387433,0,63,64.4,15.66
santa rosa,AR,-36.62,-64.29,1561387235,100,55,54.23,8.7
sinjar,SY,35.59,37.0,1561387436,0,18,99.23,16.02
kholm,RU,57.15,31.18,1561387436,62,43,71.15,6.44
emerald,AU,-23.53,148.16,1561387436,0,50,51.8,11.41
cleethorpes,GB,53.56,-0.03,1561387436,75,83,73.0,4.7
sakaiminato,JP,35.55,133.23,1561387436,40,72,66.2,1.12
santa cruz,US,36.97,-122.03,1561387240,90,93,64.0,6.22
ostrovnoy,RU,68.05,39.51,1561387438,100,76,43.07,13.47
pathanamthitta,IN,9.27,76.79,1561387438,100,91,77.81,2.19
iqaluit,CA,63.75,-68.52,1561387438,20,47,59.0,14.99
turayf,SA,31.68,38.65,1561387438,0,11,104.0,9.17
kirakira,SB,-10.46,161.92,1561387439,9,86,76.73,4.09
ferrol,ES,43.48,-8.23,1561387439,20,68,68.0,6.93
aksarayskiy,RU,46.79,48.01,1561387439,75,28,93.2,8.95
port augusta,AU,-32.49,137.76,1561387439,90,65,46.99,2.44
chuy,UY,-33.69,-53.46,1561387439,100,88,59.99,5.61
itaueira,BR,-7.6,-43.03,1561387439,73,43,87.17,9.93
broome,GB,52.47,1.45,1561387439,20,78,80.01,10.29
sharkan,RU,57.3,53.87,1561387439,60,53,73.99,7.34
crossville,US,35.95,-85.03,1561387440,40,78,82.0,9.17
adrar,DZ,27.87,-0.29,1561387440,0,3,111.2,10.29
tucumcari,US,35.17,-103.73,1561387203,75,52,66.0,8.05
stepnogorsk,KZ,52.35,71.88,1561387440,87,85,67.91,4.79
touros,BR,-5.2,-35.46,1561387440,75,58,86.0,13.87
ceyranbatan,AZ,40.54,49.66,1561387440,0,32,95.0,11.41
tyret pervaya,RU,53.67,102.31,1561387440,100,45,70.25,9.15
puerto baquerizo moreno,EC,-0.9,-89.6,1561387441,99,85,71.87,8.39
cururupu,BR,-1.82,-44.87,1561387441,0,74,83.03,5.7
santiago,CL,-33.44,-70.65,1561387173,90,75,51.01,4.7
severo-yeniseyskiy,RU,60.37,93.04,1561387441,100,81,62.15,1.63
majene,ID,-3.54,118.97,1561387442,54,78,81.77,22.1
nome,US,30.04,-94.42,1561387442,90,88,70.0,4.7
araceli,PH,10.55,119.99,1561387442,99,92,75.83,1.16
boende,CD,-0.28,20.88,1561387442,72,39,91.13,2.1
hopelchen,MX,19.77,-89.85,1561387442,5,83,80.6,11.41
bonavista,CA,48.65,-53.11,1561387442,27,58,61.0,15.01
saint paul,US,44.95,-93.1,1561387320,40,77,66.2,11.41
ewo,CG,-0.88,14.81,1561387443,7,34,89.87,7.38
popondetta,PG,-8.77,148.24,1561387443,53,93,65.75,2.91
shizunai,JP,42.33,142.37,1561387443,100,90,53.51,2.33
tazovskiy,RU,67.47,78.7,1561387443,100,90,51.53,14.56
kenora,CA,49.76,-94.48,1561387443,90,82,62.6,4.7
alberton,ZA,-26.25,28.13,1561387443,0,16,64.4,8.05
gatton,AU,-27.56,152.28,1561387444,40,87,55.99,5.82
yulara,AU,-25.24,130.99,1561387444,18,31,50.0,4.7
monrovia,LR,6.33,-10.8,1561387444,100,93,75.29,8.01
bilma,NE,18.69,12.92,1561387444,0,8,108.59,3.85
ampanihy,MG,-24.69,44.75,1561387444,2,77,69.17,6.4
aden,YE,12.79,45.03,1561387209,17,38,94.91,7.63
guerrero negro,MX,27.97,-114.04,1561387444,100,84,63.59,10.4
zyryanka,RU,65.73,150.89,1561387444,63,53,57.65,8.16
lorengau,PG,-2.02,147.27,1561387445,100,84,79.97,5.21
itacare,BR,-14.28,-39.0,1561387445,40,70,84.2,10.29
caconda,AO,-13.73,15.06,1561387445,0,13,79.79,0.45
silifke,TR,36.38,33.93,1561387445,0,17,96.89,16.58
wadena,CA,51.95,-103.8,1561387445,0,76,61.61,8.5
doctor arroyo,MX,23.67,-100.18,1561387445,0,52,74.93,0.65
charters towers,AU,-20.07,146.27,1561387446,0,65,55.31,11.14
verkhnevilyuysk,RU,63.45,120.31,1561387446,36,92,58.01,2.89
tono,JP,39.35,141.52,1561387446,100,99,55.85,3.51
ofunato,JP,39.11,141.75,1561387446,100,99,58.37,2.01
markova,RU,52.21,104.21,1561387446,0,87,60.8,8.95
jacksonville beach,US,30.29,-81.39,1561387446,1,70,90.0,5.73
corinth,GR,37.94,22.93,1561387447,20,30,96.01,5.82
glyadyanskoye,RU,54.91,65.09,1561387447,0,74,73.85,4.99
salalah,OM,17.01,54.1,1561387447,20,84,86.0,12.75
bajil,ES,38.23,-2.07,1561387447,100,33,89.01,8.01
coquimbo,CL,-29.95,-71.34,1561387217,100,82,56.57,18.25
mitsamiouli,KM,-11.38,43.28,1561387447,40,69,82.4,13.87
luderitz,NA,-26.65,15.16,1561387448,0,45,68.0,1.12
lukaya,UG,-0.15,31.87,1561387448,20,73,77.0,6.93
berlevag,NO,70.86,29.09,1561387448,75,66,51.8,16.11
aksarka,RU,66.56,67.8,1561387448,97,60,48.47,12.17
belozerskoye,RU,55.82,65.58,1561387448,37,73,71.87,6.42
hofn,IS,64.25,-15.21,1561387448,20,63,60.8,19.46
clarence town,AU,-32.59,151.78,1561387448,40,93,55.99,5.82
alenquer,BR,-1.95,-54.74,1561387449,75,94,82.4,6.93
eregli,TR,37.51,34.05,1561387449,0,28,82.85,11.1
codrington,AU,-28.95,153.24,1561387449,40,100,53.6,5.17
pucallpa,PE,-8.38,-74.54,1561387443,75,331,35.6,2.24
kwinana,AU,-32.25,115.77,1561387449,90,82,61.0,3.36
krabi,TH,8.06,98.92,1561387449,40,94,78.8,2.24
mahajanga,MG,-15.72,46.32,1561387450,20,58,82.4,4.7
nakatsugawa,JP,35.49,137.5,1561387450,0,68,71.01,5.03
huambo,AO,-12.78,15.73,1561387450,0,22,78.8,6.93
eldorado,MX,24.32,-107.36,1561387425,5,57,82.0,5.01
xinyu,CN,27.8,114.93,1561387450,74,94,69.53,0.74
kathmandu,NP,27.71,85.32,1561387389,40,78,78.8,6.93
airai,TL,-8.93,125.41,1561387451,17,81,66.47,6.8
idrinskoye,RU,54.37,92.14,1561387451,100,91,50.45,1.54
gamba,CN,28.28,88.52,1561387451,0,41,49.91,5.28
ahipara,NZ,-35.17,173.16,1561387451,0,73,57.83,18.21
raudeberg,NO,61.99,5.14,1561387451,0,55,62.6,5.82
inongo,CD,-1.93,18.29,1561387451,56,36,91.67,1.63
eagle pass,MX,28.71,-100.5,1561387219,5,61,82.4,11.99
ende,ID,-8.84,121.65,1561387451,0,78,77.81,9.28
novopskov,UA,49.54,39.1,1561387452,100,58,80.51,2.95
bandarbeyla,SO,9.49,50.81,1561387452,4,56,84.11,25.23
baghdad,IQ,33.3,44.38,1561387241,0,11,113.0,19.46
mozarlandia,BR,-14.74,-50.57,1561387452,0,30,89.15,6.98
progreso,UY,-34.68,-56.22,1561387452,90,87,60.01,5.82
camacha,PT,33.08,-16.33,1561387452,75,69,77.0,9.17
mbanza-ngungu,CD,-5.25,14.87,1561387453,83,33,87.89,6.85
saint-augustin,FR,44.83,-0.61,1561387453,0,51,91.0,8.05
niquero,CU,20.04,-77.58,1561387453,22,80,82.13,5.97
muscat,OM,23.6,58.55,1561387314,34,75,93.2,10.29
saquena,PE,-4.67,-73.52,1561387453,100,97,73.31,1.57
kenitra,MA,34.26,-6.57,1561387453,0,60,75.2,14.99
sechura,PE,-5.56,-80.82,1561387453,100,86,64.49,7.65
rock sound,BS,24.9,-76.2,1561387380,0,67,82.67,3.15
mnogovershinnyy,RU,53.94,139.92,1561387455,100,96,47.21,4.68
imuris,MX,30.78,-110.86,1561387455,0,19,77.63,3.91
zhangye,CN,38.94,100.46,1561387455,100,62,63.23,9.84
jardim,BR,-21.48,-56.15,1561387455,0,43,78.35,12.66
antalaha,MG,-14.9,50.28,1561387455,1,98,64.85,2.48
bathsheba,BB,13.22,-59.52,1561387456,75,74,86.0,20.8
kaoma,ZM,-14.8,24.8,1561387456,0,22,79.79,6.6
inhambane,MZ,-23.87,35.38,1561387456,40,60,75.2,9.17
batken,KG,40.06,70.82,1561387456,76,39,69.71,9.84
micheweni,TZ,-4.97,39.83,1561387456,0,77,78.71,15.79
alamada,PH,7.39,124.55,1561387456,100,88,68.99,3.6
behshahr,IR,36.69,53.54,1561387456,40,55,91.4,6.93
guamal,CO,9.14,-74.22,1561387456,67,57,92.03,0.67
dungarpur,IN,23.85,73.71,1561387457,94,50,86.09,19.08
penukonda,IN,14.08,77.6,1561387457,96,62,81.59,17.72
kenai,US,60.55,-151.26,1561387457,40,82,55.4,9.17
san carlos del zulia,VE,9.0,-71.91,1561387240,54,72,84.65,4.76
saint-pierre,FR,48.95,4.24,1561387457,0,43,91.4,4.7
piripiri,BR,-4.27,-41.78,1561387458,21,51,87.71,5.77
flinders,AU,-34.58,150.85,1561387458,90,100,57.0,2.19
pamekasan,ID,-7.16,113.47,1561387458,0,90,72.05,4.29
vila franca do campo,PT,37.72,-25.43,1561387458,75,60,69.8,12.75
banavar,IN,13.41,76.17,1561387458,100,72,75.83,4.68
salvador,BR,-12.98,-38.48,1561387459,75,74,80.6,13.87
puerto carreno,CO,6.19,-67.49,1561387404,40,83,80.6,2.89
waipawa,NZ,-39.94,176.59,1561387459,48,93,39.99,6.26
huadian,CN,42.97,126.75,1561387459,72,76,63.41,2.62
porto belo,BR,-27.15,-48.54,1561387459,0,73,77.0,16.11
mikhaylovskoye,RU,43.1,44.64,1561387459,40,54,80.6,15.66
mareeba,AU,-16.99,145.42,1561387459,20,77,64.4,9.17
eureka,US,40.8,-124.16,1561387446,75,93,53.01,22.44
goderich,CA,43.74,-81.71,1561387460,100,73,68.0,15.01
ulagan,RU,50.63,87.96,1561387460,100,86,37.85,2.35
lokosovo,RU,61.13,74.84,1561387460,33,72,64.13,2.28
bangkalan,ID,-7.05,112.74,1561387460,0,81,74.39,4.23
sinnamary,GF,5.38,-52.96,1561387460,99,89,76.91,7.11
slave lake,CA,55.28,-114.77,1561387460,90,93,55.4,14.99
sur,OM,22.57,59.53,1561387461,32,57,87.53,3.89
kargasok,RU,59.06,80.87,1561387461,0,68,61.61,1.39
paita,PE,-5.09,-81.11,1561387461,40,290,62.6,21.92
bucerias,MX,20.76,-105.33,1561387461,5,73,82.0,6.08
tecolutla,MX,17.31,-98.74,1561387461,97,79,69.17,2.55
keti bandar,PK,24.14,67.45,1561387461,0,83,84.29,14.38
trofors,NO,65.54,13.39,1561387461,75,66,55.4,10.29
komsomolskiy,RU,67.55,63.78,1561387462,98,81,39.83,13.69
suntar,RU,62.16,117.65,1561387462,26,96,53.69,3.29
boali,CF,4.81,18.11,1561387462,11,87,79.07,4.88
parati,BR,-20.51,-54.63,1561387462,0,36,80.6,14.99
marshall,US,39.39,-87.69,1561387219,90,88,72.0,9.17
khed brahma,IN,24.03,73.05,1561387462,96,63,84.65,12.46
crema,IT,45.36,9.69,1561387462,0,36,93.0,5.82
crateus,BR,-5.18,-40.68,1561387463,71,50,84.65,9.19
barra do garcas,BR,-15.89,-52.26,1561387463,0,45,82.4,6.93
mattru,SL,7.62,-11.83,1561387463,100,88,79.97,5.73
east london,ZA,-33.02,27.91,1561387463,0,49,68.0,2.24
buluang,PH,10.47,123.98,1561387463,75,78,80.6,1.12
zhezkazgan,KZ,47.8,67.71,1561387463,0,14,91.4,11.18
rothesay,GB,55.84,-5.05,1561387463,75,93,61.0,10.29
ardakan,IR,32.31,54.02,1561387464,20,10,104.0,4.7
rohri,PK,27.68,68.91,1561387464,49,32,100.67,17.22
knysna,ZA,-34.04,23.05,1561387358,40,72,59.0,9.17
panaba,MX,21.28,-88.27,1561387464,30,55,88.79,6.64
yevsino,RU,54.42,83.32,1561387464,43,83,50.45,2.82
yonezawa,JP,37.88,140.12,1561387464,100,67,63.0,1.23
mackay,CA,53.65,-115.58,1561387464,90,93,50.0,11.41
san carlos de bariloche,AR,-41.13,-71.31,1561387464,90,74,35.6,16.11
pilar,AR,-34.46,-58.91,1561387447,75,87,59.0,12.75
sohag,EG,26.55,31.7,1561387465,0,13,102.2,12.75
tucurui,BR,-3.77,-49.67,1561387244,20,44,89.87,4.85
